{
  "AEAJM": {
    "name": "Ajman",
    "city": "Ajman",
    "country": "United Arab Emirates",
    "alias": [],
    "regions": [],
    "coordinates": [
      55.5136433,
      25.4052165
    ],
    "province": "Ajman",
    "timezone": "Asia/Dubai",
    "unlocs": [
      "AEAJM"
    ],
    "code": "52000"
  },
  "AEAUH": {
    "name": "Abu Dhabi",
    "coordinates": [
      54.37,
      24.47
    ],
    "city": "Abu Dhabi",
    "province": "Abu Z¸aby [Abu Dhabi]",
    "country": "United Arab Emirates",
    "alias": [],
    "regions": [],
    "timezone": "Asia/Dubai",
    "unlocs": [
      "AEAUH"
    ],
    "code": "52001"
  },
  "AEAUI": {
    "name": "Abu Dhabi",
    "coordinates": [
      54.37,
      24.47
    ],
    "city": "Abu Dhabi",
    "province": "Abu Z¸aby [Abu Dhabi]",
    "country": "United Arab Emirates",
    "alias": [],
    "regions": [],
    "timezone": "Asia/Dubai",
    "unlocs": [
      "AEAUH"
    ],
    "code": "52001"
  },
  "AEAUJ": {
    "name": "Abu Dhabi",
    "coordinates": [
      54.37,
      24.47
    ],
    "city": "Abu Dhabi",
    "province": "Abu Z¸aby [Abu Dhabi]",
    "country": "United Arab Emirates",
    "alias": [],
    "regions": [],
    "timezone": "Asia/Dubai",
    "unlocs": [
      "AEAUH"
    ],
    "code": "52001"
  },
  "AEAUK": {
    "name": "Abu Dhabi",
    "coordinates": [
      54.37,
      24.47
    ],
    "city": "Abu Dhabi",
    "province": "Abu Z¸aby [Abu Dhabi]",
    "country": "United Arab Emirates",
    "alias": [],
    "regions": [],
    "timezone": "Asia/Dubai",
    "unlocs": [
      "AEAUH"
    ],
    "code": "52001"
  },
  "AEAUL": {
    "name": "Abu Dhabi",
    "coordinates": [
      54.37,
      24.47
    ],
    "city": "Abu Dhabi",
    "province": "Abu Z¸aby [Abu Dhabi]",
    "country": "United Arab Emirates",
    "alias": [],
    "regions": [],
    "timezone": "Asia/Dubai",
    "unlocs": [
      "AEAUH"
    ],
    "code": "52001"
  },
  "AEAUM": {
    "name": "Abu Dhabi",
    "coordinates": [
      54.37,
      24.47
    ],
    "city": "Abu Dhabi",
    "province": "Abu Z¸aby [Abu Dhabi]",
    "country": "United Arab Emirates",
    "alias": [],
    "regions": [],
    "timezone": "Asia/Dubai",
    "unlocs": [
      "AEAUH"
    ],
    "code": "52001"
  },
  "AEAUM": {
    "name": "Abu Dhabi",
    "coordinates": [
      54.37,
      24.47
    ],
    "city": "Abu Dhabi",
    "province": "Abu Z¸aby [Abu Dhabi]",
    "country": "United Arab Emirates",
    "alias": [],
    "regions": [],
    "timezone": "Asia/Dubai",
    "unlocs": [
      "AEAUH"
    ],
    "code": "52001"
  },
  "AEAUN": {
    "name": "Abu Dhabi",
    "coordinates": [
      54.37,
      24.47
    ],
    "city": "Abu Dhabi",
    "province": "Abu Z¸aby [Abu Dhabi]",
    "country": "United Arab Emirates",
    "alias": [],
    "regions": [],
    "timezone": "Asia/Dubai",
    "unlocs": [
      "AEAUH"
    ],
    "code": "52001"
  }
}
